{
  "type": "FeatureCollection",
  "features": [
    {
      "type": "Feature",
      "properties": {
        "nombre_barrio": "Centro",
        "provincia": "Formosa",
        "departamento": "Formosa",
        "localidad": "Formosa"
      },
      "geometry": {
        "type": "Point",
        "coordinates": [-58.1756, -26.1857]
      }
    },
    {
      "type": "Feature",
      "properties": {
        "nombre_barrio": "Eva Perón",
        "provincia": "Formosa",
        "departamento": "Formosa",
        "localidad": "Formosa"
      },
      "geometry": {
        "type": "Point",
        "coordinates": [-58.1820, -26.1750]
      }
    },
    {
      "type": "Feature",
      "properties": {
        "nombre_barrio": "San Martín",
        "provincia": "Formosa",
        "departamento": "Formosa",
        "localidad": "Formosa"
      },
      "geometry": {
        "type": "Point",
        "coordinates": [-58.1700, -26.1880]
      }
    },
    {
      "type": "Feature",
      "properties": {
        "nombre_barrio": "Virgen del Carmen",
        "provincia": "Formosa",
        "departamento": "Formosa",
        "localidad": "Formosa"
      },
      "geometry": {
        "type": "Point",
        "coordinates": [-58.1650, -26.1920]
      }
    },
    {
      "type": "Feature",
      "properties": {
        "nombre_barrio": "Obrero",
        "provincia": "Formosa",
        "departamento": "Formosa",
        "localidad": "Formosa"
      },
      "geometry": {
        "type": "Point",
        "coordinates": [-58.1780, -26.1800]
      }
    },
    {
      "type": "Feature",
      "properties": {
        "nombre_barrio": "1º de Mayo",
        "provincia": "Formosa",
        "departamento": "Formosa",
        "localidad": "Formosa"
      },
      "geometry": {
        "type": "Point",
        "coordinates": [-58.1900, -26.1700]
      }
    },
    {
      "type": "Feature",
      "properties": {
        "nombre_barrio": "Liborsi",
        "provincia": "Formosa",
        "departamento": "Formosa",
        "localidad": "Formosa"
      },
      "geometry": {
        "type": "Point",
        "coordinates": [-58.1600, -26.1950]
      }
    },
    {
      "type": "Feature",
      "properties": {
        "nombre_barrio": "Juan D. Perón",
        "provincia": "Formosa",
        "departamento": "Formosa",
        "localidad": "Formosa"
      },
      "geometry": {
        "type": "Point",
        "coordinates": [-58.1850, -26.1680]
      }
    },
    {
      "type": "Feature",
      "properties": {
        "nombre_barrio": "Villa del Carmen",
        "provincia": "Formosa",
        "departamento": "Formosa",
        "localidad": "Formosa"
      },
      "geometry": {
        "type": "Point",
        "coordinates": [-58.1550, -26.2000]
      }
    },
    {
      "type": "Feature",
      "properties": {
        "nombre_barrio": "Guadalupe",
        "provincia": "Formosa",
        "departamento": "Formosa",
        "localidad": "Formosa"
      },
      "geometry": {
        "type": "Point",
        "coordinates": [-58.1720, -26.1830]
      }
    }
  ]
}